[
  {
    "id": "hefei",
    "name": "Hefei, Anhui",
    "label": "Where it began — first meeting",
    "lat": 31.8390,
    "lon": 117.2638,
    "summary": "Koko and Momo first met in Hefei on February 22, 2024.",
    "camera": { "center": [117.2638, 31.8390], "zoom": 6.0 }
  },
  {
    "id": "wuhan",
    "name": "Wuhan, Hubei",
    "label": "First hold, first together",
    "lat": 30.5928,
    "lon": 114.3055,
    "summary": "In Wuhan: first held hands March 16, officially together March 17, 2024.",
    "camera": { "center": [114.3055, 30.5928], "zoom": 6.0 }
  },
  {
    "id": "singapore",
    "name": "Singapore",
    "label": "Singapore trip — June 2024",
    "lat": 1.3521,
    "lon": 103.8198,
    "summary": "KoMo traveled to Singapore in June 2024.",
    "camera": { "center": [103.8198, 1.3521], "zoom": 9.0 }
  },
  {
    "id": "beijing",
    "name": "Beijing",
    "label": "Summer base — 2024 & 2025",
    "lat": 39.9042,
    "lon": 116.4074,
    "summary": "Beijing was KoMo's summer base in 2024 and 2025.",
    "camera": { "center": [116.4074, 39.9042], "zoom": 7.0 }
  },
  {
    "id": "us",
    "name": "United States",
    "label": "Koko's home / Momo's visit Feb 2026",
    "lat": 37.0902,
    "lon": -95.7129,
    "summary": "Koko lives in the US. Momo visited in February 2026.",
    "camera": { "center": [-95.7129, 37.0902], "zoom": 3.5 }
  },
  {
    "id": "sf",
    "name": "San Francisco, California",
    "label": "Future home — happily ever after",
    "lat": 37.7749,
    "lon": -122.4194,
    "summary": "Where Koko and Momo will live happily ever after.",
    "camera": { "center": [-122.4194, 37.7749], "zoom": 10.0 }
  }
]
