[
  {
    "id": "hefei",
    "name": "Hefei, Anhui",
    "label": "Where We Met",
    "lat": 31.8390,
    "lon": 117.2638,
    "summary": "The city where Koko and Momo first met on February 22, 2024.",
    "camera": {
      "center": [117.2638, 31.8390],
      "zoom": 10.0
    }
  },
  {
    "id": "wuhan",
    "name": "Wuhan, Hubei",
    "label": "Where We Became Us",
    "lat": 30.5928,
    "lon": 114.3055,
    "summary": "The city where they held hands for the first time and officially became a couple in March 2024.",
    "camera": {
      "center": [114.3055, 30.5928],
      "zoom": 10.0
    }
  },
  {
    "id": "singapore",
    "name": "Singapore",
    "label": "First International Adventure",
    "lat": 1.3521,
    "lon": 103.8198,
    "summary": "Their first trip abroad together in June 2024.",
    "camera": {
      "center": [103.8198, 1.3521],
      "zoom": 11.0
    }
  },
  {
    "id": "beijing",
    "name": "Beijing",
    "label": "The Long Chapter",
    "lat": 39.9042,
    "lon": 116.4074,
    "summary": "Multiple stays spanning from summer 2024 through 2025, making Beijing a recurring and special place in their story.",
    "camera": {
      "center": [116.4074, 39.9042],
      "zoom": 10.0
    }
  },
  {
    "id": "california",
    "name": "California, USA",
    "label": "New Horizons",
    "lat": 36.7783,
    "lon": -119.4179,
    "summary": "Momo's journey to California in March 2026.",
    "camera": {
      "center": [-119.4179, 36.7783],
      "zoom": 6.0
    }
  }
]
